osm_id,code,fclass,name,lon,lat
357555329,2082,school,Dayton Intermediate School,-119.5766,39.23969
357555332,2082,school,Dayton Elementary School,-119.5795,39.23873
357555336,2082,school,Silver Springs Elementary School,-119.2836,39.3893
357555902,2082,school,Stagecoach Christian Academy,-119.37406,39.3738
357566435,2082,school,Faith Baptist Academy,-119.231,39.3442
357566644,2082,school,Western Nevada Regional Youth Center,-119.28267,39.39098
5622355338,2303,cafe,Blaqk Coffee,-119.58945,39.24304
6983660193,2501,supermarket,Grocery Outlet,-119.22112,39.60683
8305342376,2303,cafe,Starbucks,-119.58211,39.26261
8534257068,2501,supermarket,Grocery Outlet,-119.57741,39.26848
8688616417,2303,cafe,Freedom Espresso,-119.23466,39.60544
357562712,2005,post_office,Wellington Post Office,-119.37626,38.75626
357562839,2005,post_office,Yerington Post Office,-119.16296,38.98801
357563691,2005,post_office,Smith Post Office,-119.32738,38.80047
357562366,2005,post_office,Como Post Office,-119.47739,39.17241
357563359,2005,post_office,Fernley Post Office,-119.24602,39.60699
357563471,2005,post_office,Silver City Post Office,-119.64104,39.26425
357563572,2005,post_office,Dayton Post Office,-119.58986,39.24061
357563855,2005,post_office,Silver Springs Post Office,-119.22382,39.41497
366087974,2008,town_hall,Silver City Town Hall,-119.64186,39.2648
2313765232,2002,fire_station,,-119.63868,39.26228
7044509410,2008,town_hall,Fernley City Hall,-119.24048,39.60472
7044509412,2009,courthouse,Fernley Municipal Court,-119.24054,39.60442
